[
  {
    "name": "Bushy parkrun",
    "slug": "bushy",
    "url": "https://www.parkrun.org.uk/bushy/",
    "lat": 51.410992,
    "lng": -0.335791,
    "countrycode": 97,
    "seriesid": 1,
    "weekday": 6,
    "start_time": "09:30",
    "notes": "A free, fun, and friendly weekly 5k community event. Walk, jog, run, volunteer or spectate – it's up to you!"
  },
  {
    "name": "Wimbledon Common parkrun",
    "slug": "wimbledon",
    "url": "https://www.parkrun.org.uk/wimbledon/",
    "lat": 51.442078,
    "lng": -0.232215,
    "countrycode": 97,
    "seriesid": 1,
    "weekday": 6,
    "start_time": "09:30",
    "notes": "A free, fun, and friendly weekly 5k community event. Walk, jog, run, volunteer or spectate – it's up to you!"
  },
  {
    "name": "Banstead Woods parkrun",
    "slug": "banstead",
    "url": "https://www.parkrun.org.uk/banstead/",
    "lat": 51.307648,
    "lng": -0.184225,
    "countrycode": 97,
    "seriesid": 1,
    "weekday": 6,
    "start_time": "09:30",
    "notes": "A free, fun, and friendly weekly 5k community event. Walk, jog, run, volunteer or spectate – it's up to you!"
  },
  {
    "name": "Richmond parkrun",
    "slug": "richmond",
    "url": "https://www.parkrun.org.uk/richmond/",
    "lat": 51.451962,
    "lng": -0.292886,
    "countrycode": 97,
    "seriesid": 1,
    "weekday": 6,
    "start_time": "09:30",
    "notes": "A free, fun, and friendly weekly 5k community event. Walk, jog, run, volunteer or spectate – it's up to you!"
  },
  {
    "name": "Woodhouse Moor parkrun",
    "slug": "woodhousemoor",
    "url": "https://www.parkrun.org.uk/woodhousemoor/",
    "lat": 53.808582,
    "lng": -1.560059,
    "countrycode": 97,
    "seriesid": 1,
    "weekday": 6,
    "start_time": "09:30",
    "notes": "A free, fun, and friendly weekly 5k community event. Walk, jog, run, volunteer or spectate – it's up to you!"
  },
  {
    "name": "Bramhall parkrun",
    "slug": "bramhall",
    "url": "https://www.parkrun.org.uk/bramhall/",
    "lat": 53.374268,
    "lng": -2.160702,
    "countrycode": 97,
    "seriesid": 1,
    "weekday": 6,
    "start_time": "09:30",
    "notes": "A free, fun, and friendly weekly 5k community event. Walk, jog, run, volunteer or spectate – it's up to you!"
  },
  {
    "name": "Brighton & Hove parkrun",
    "slug": "brighton",
    "url": "https://www.parkrun.org.uk/brighton/",
    "lat": 50.84214,
    "lng": -0.172498,
    "countrycode": 97,
    "seriesid": 1,
    "weekday": 6,
    "start_time": "09:30",
    "notes": "A free, fun, and friendly weekly 5k community event. Walk, jog, run, volunteer or spectate – it's up to you!"
  },
  {
    "name": "Cardiff parkrun",
    "slug": "cardiff",
    "url": "https://www.parkrun.org.uk/cardiff/",
    "lat": 51.49736,
    "lng": -3.207107,
    "countrycode": 97,
    "seriesid": 1,
    "weekday": 6,
    "start_time": "09:30",
    "notes": "A free, fun, and friendly weekly 5k community event. Walk, jog, run, volunteer or spectate – it's up to you!"
  },
  {
    "name": "Albert parkrun, Middlesbrough",
    "slug": "albert",
    "url": "https://www.parkrun.org.uk/albert/",
    "lat": 54.564972,
    "lng": -1.231788,
    "countrycode": 97,
    "seriesid": 1,
    "weekday": 6,
    "start_time": "09:30",
    "notes": "A free, fun, and friendly weekly 5k community event. Walk, jog, run, volunteer or spectate – it's up to you!"
  },
  {
    "name": "Basingstoke parkrun",
    "slug": "basingstoke",
    "url": "https://www.parkrun.org.uk/basingstoke/",
    "lat": 51.258831,
    "lng": -1.082035,
    "countrycode": 97,
    "seriesid": 1,
    "weekday": 6,
    "start_time": "09:30",
    "notes": "A free, fun, and friendly weekly 5k community event. Walk, jog, run, volunteer or spectate – it's up to you!"
  },
  {
    "name": "Pollok parkrun, Glasgow",
    "slug": "pollok",
    "url": "https://www.parkrun.org.uk/pollok/",
    "lat": 55.82992,
    "lng": -4.307882,
    "countrycode": 97,
    "seriesid": 1,
    "weekday": 6,
    "start_time": "09:30",
    "notes": "A free, fun, and friendly weekly 5k community event. Walk, jog, run, volunteer or spectate – it's up to you!"
  },
  {
    "name": "Gorleston Cliffs parkrun",
    "slug": "gorleston",
    "url": "https://www.parkrun.org.uk/gorleston/",
    "lat": 52.567806,
    "lng": 1.73069,
    "countrycode": 97,
    "seriesid": 1,
    "weekday": 6,
    "start_time": "09:30",
    "notes": "A free, fun, and friendly weekly 5k community event. Walk, jog, run, volunteer or spectate – it's up to you!"
  },
  {
    "name": "Bedfont Lakes parkrun",
    "slug": "bedfont",
    "url": "https://www.parkrun.org.uk/bedfont/",
    "lat": 51.440762,
    "lng": -0.451523,
    "countrycode": 97,
    "seriesid": 1,
    "weekday": 6,
    "start_time": "09:30",
    "notes": "A free, fun, and friendly weekly 5k community event. Walk, jog, run, volunteer or spectate – it's up to you!"
  },
  {
    "name": "Heaton parkrun",
    "slug": "heaton",
    "url": "https://www.parkrun.org.uk/heaton/",
    "lat": 53.531975,
    "lng": -2.256263,
    "countrycode": 97,
    "seriesid": 1,
    "weekday": 6,
    "start_time": "09:30",
    "notes": "A free, fun, and friendly weekly 5k community event. Walk, jog, run, volunteer or spectate – it's up to you!"
  },
  {
    "name": "Roundshaw Downs parkrun",
    "slug": "roundshaw",
    "url": "https://www.parkrun.org.uk/roundshaw/",
    "lat": 51.352253,
    "lng": -0.11872,
    "countrycode": 97,
    "seriesid": 1,
    "weekday": 6,
    "start_time": "09:30",
    "notes": "A free, fun, and friendly weekly 5k community event. Walk, jog, run, volunteer or spectate – it's up to you!"
  },
  {
    "name": "Reading parkrun",
    "slug": "reading",
    "url": "https://www.parkrun.org.uk/reading/",
    "lat": 51.460384,
    "lng": -0.941573,
    "countrycode": 97,
    "seriesid": 1,
    "weekday": 6,
    "start_time": "09:30",
    "notes": "A free, fun, and friendly weekly 5k community event. Walk, jog, run, volunteer or spectate – it's up to you!"
  },
  {
    "name": "Woodbank parkrun",
    "slug": "woodbank",
    "url": "https://www.parkrun.org.uk/woodbank/",
    "lat": 53.408405,
    "lng": -2.130945,
    "countrycode": 97,
    "seriesid": 1,
    "weekday": 6,
    "start_time": "09:30",
    "notes": "A free, fun, and friendly weekly 5k community event. Walk, jog, run, volunteer or spectate – it's up to you!"
  },
  {
    "name": "Black Park parkrun",
    "slug": "blackpark",
    "url": "https://www.parkrun.org.uk/blackpark/",
    "lat": 51.540329,
    "lng": -0.5476,
    "countrycode": 97,
    "seriesid": 1,
    "weekday": 6,
    "start_time": "09:30",
    "notes": "A free, fun, and friendly weekly 5k community event. Walk, jog, run, volunteer or spectate – it's up to you!"
  },
  {
    "name": "Silksworth parkrun",
    "slug": "silksworth",
    "url": "https://www.parkrun.org.uk/silksworth/",
    "lat": 54.883911,
    "lng": -1.409099,
    "countrycode": 97,
    "seriesid": 1,
    "weekday": 6,
    "start_time": "09:30",
    "notes": "A free, fun, and friendly weekly 5k community event. Walk, jog, run, volunteer or spectate – it's up to you!"
  },
  {
    "name": "Finsbury parkrun",
    "slug": "finsbury",
    "url": "https://www.parkrun.org.uk/finsbury/",
    "lat": 51.569595,
    "lng": -0.104145,
    "countrycode": 97,
    "seriesid": 1,
    "weekday": 6,
    "start_time": "09:30",
    "notes": "A free, fun, and friendly weekly 5k community event. Walk, jog, run, volunteer or spectate – it's up to you!"
  },
  {
    "name": "Edinburgh parkrun",
    "slug": "edinburgh",
    "url": "https://www.parkrun.org.uk/edinburgh/",
    "lat": 55.978806,
    "lng": -3.291585,
    "countrycode": 97,
    "seriesid": 1,
    "weekday": 6,
    "start_time": "09:30",
    "notes": "A free, fun, and friendly weekly 5k community event. Walk, jog, run, volunteer or spectate – it's up to you!"
  },
  {
    "name": "Bromley parkrun",
    "slug": "bromley",
    "url": "https://www.parkrun.org.uk/bromley/",
    "lat": 51.386539,
    "lng": 0.022874,
    "countrycode": 97,
    "seriesid": 1,
    "weekday": 6,
    "start_time": "09:30",
    "notes": "A free, fun, and friendly weekly 5k community event. Walk, jog, run, volunteer or spectate – it's up to you!"
  },
  {
    "name": "South Manchester parkrun",
    "slug": "southmanchester",
    "url": "https://www.parkrun.org.uk/southmanchester/",
    "lat": 53.446072,
    "lng": -2.224689,
    "countrycode": 97,
    "seriesid": 1,
    "weekday": 6,
    "start_time": "09:30",
    "notes": "A free, fun, and friendly weekly 5k community event. Walk, jog, run, volunteer or spectate – it's up to you!"
  },
  {
    "name": "Bexley parkrun",
    "slug": "bexley",
    "url": "https://www.parkrun.org.uk/bexley/",
    "lat": 51.455132,
    "lng": 0.113254,
    "countrycode": 97,
    "seriesid": 1,
    "weekday": 6,
    "start_time": "09:30",
    "notes": "A free, fun, and friendly weekly 5k community event. Walk, jog, run, volunteer or spectate – it's up to you!"
  },
  {
    "name": "Wakefield Thornes parkrun",
    "slug": "wakefieldthornes",
    "url": "https://www.parkrun.org.uk/wakefieldthornes/",
    "lat": 53.672488,
    "lng": -1.509682,
    "countrycode": 97,
    "seriesid": 1,
    "weekday": 6,
    "start_time": "09:30",
    "notes": "A free, fun, and friendly weekly 5k community event. Walk, jog, run, volunteer or spectate – it's up to you!"
  },
  {
    "name": "Harrow parkrun",
    "slug": "harrow",
    "url": "https://www.parkrun.org.uk/harrow/",
    "lat": 51.581781,
    "lng": -0.342734,
    "countrycode": 97,
    "seriesid": 1,
    "weekday": 6,
    "start_time": "09:30",
    "notes": "A free, fun, and friendly weekly 5k community event. Walk, jog, run, volunteer or spectate – it's up to you!"
  },
  {
    "name": "Hull parkrun",
    "slug": "hull",
    "url": "https://www.parkrun.org.uk/hull/",
    "lat": 53.764645,
    "lng": -0.300708,
    "countrycode": 97,
    "seriesid": 1,
    "weekday": 6,
    "start_time": "09:30",
    "notes": "A free, fun, and friendly weekly 5k community event. Walk, jog, run, volunteer or spectate – it's up to you!"
  },
  {
    "name": "Hadleigh parkrun, Essex",
    "slug": "hadleigh",
    "url": "https://www.parkrun.org.uk/hadleigh/",
    "lat": 51.549769,
    "lng": 0.59606,
    "countrycode": 97,
    "seriesid": 1,
    "weekday": 6,
    "start_time": "09:30",
    "notes": "A free, fun, and friendly weekly 5k community event. Walk, jog, run, volunteer or spectate – it's up to you!"
  },
  {
    "name": "Banbury parkrun",
    "slug": "banbury",
    "url": "https://www.parkrun.org.uk/banbury/",
    "lat": 52.068807,
    "lng": -1.332318,
    "countrycode": 97,
    "seriesid": 1,
    "weekday": 6,
    "start_time": "09:30",
    "notes": "A free, fun, and friendly weekly 5k community event. Walk, jog, run, volunteer or spectate – it's up to you!"
  },
  {
    "name": "Eastbourne parkrun",
    "slug": "eastbourne",
    "url": "https://www.parkrun.org.uk/eastbourne/",
    "lat": 50.806248,
    "lng": 0.290451,
    "countrycode": 97,
    "seriesid": 1,
    "weekday": 6,
    "start_time": "09:30",
    "notes": "A free, fun, and friendly weekly 5k community event. Walk, jog, run, volunteer or spectate – it's up to you!"
  },
  {
    "name": "Aberdeen parkrun",
    "slug": "aberdeen",
    "url": "https://www.parkrun.org.uk/aberdeen/",
    "lat": 57.173898,
    "lng": -2.086256,
    "countrycode": 97,
    "seriesid": 1,
    "weekday": 6,
    "start_time": "09:30",
    "notes": "A free, fun, and friendly weekly 5k community event. Walk, jog, run, volunteer or spectate – it's up to you!"
  },
  {
    "name": "Grovelands parkrun, Enfield",
    "slug": "grovelands",
    "url": "https://www.parkrun.org.uk/grovelands/",
    "lat": 51.633076,
    "lng": -0.113769,
    "countrycode": 97,
    "seriesid": 1,
    "weekday": 6,
    "start_time": "09:30",
    "notes": "A free, fun, and friendly weekly 5k community event. Walk, jog, run, volunteer or spectate – it's up to you!"
  },
  {
    "name": "Luton Wardown parkrun",
    "slug": "lutonwardown",
    "url": "https://www.parkrun.org.uk/lutonwardown/",
    "lat": 51.889853,
    "lng": -0.420917,
    "countrycode": 97,
    "seriesid": 1,
    "weekday": 6,
    "start_time": "09:30",
    "notes": "A free, fun, and friendly weekly 5k community event. Walk, jog, run, volunteer or spectate – it's up to you!"
  },
  {
    "name": "Basildon parkrun",
    "slug": "basildon",
    "url": "https://www.parkrun.org.uk/basildon/",
    "lat": 51.577778,
    "lng": 0.499615,
    "countrycode": 97,
    "seriesid": 1,
    "weekday": 6,
    "start_time": "09:30",
    "notes": "A free, fun, and friendly weekly 5k community event. Walk, jog, run, volunteer or spectate – it's up to you!"
  },
  {
    "name": "Plean parkrun",
    "slug": "plean",
    "url": "https://www.parkrun.org.uk/plean/",
    "lat": 56.057791,
    "lng": -3.881607,
    "countrycode": 97,
    "seriesid": 1,
    "weekday": 6,
    "start_time": "09:30",
    "notes": "A free, fun, and friendly weekly 5k community event. Walk, jog, run, volunteer or spectate – it's up to you!"
  },
  {
    "name": "Kingsway parkrun, Gloucester",
    "slug": "kingsway",
    "url": "https://www.parkrun.org.uk/kingsway/",
    "lat": 51.821487,
    "lng": -2.272804,
    "countrycode": 97,
    "seriesid": 1,
    "weekday": 6,
    "start_time": "09:30",
    "notes": "A free, fun, and friendly weekly 5k community event. Walk, jog, run, volunteer or spectate – it's up to you!"
  },
  {
    "name": "Frimley Lodge parkrun",
    "slug": "frimleylodge",
    "url": "https://www.parkrun.org.uk/frimleylodge/",
    "lat": 51.298622,
    "lng": -0.724851,
    "countrycode": 97,
    "seriesid": 1,
    "weekday": 6,
    "start_time": "09:30",
    "notes": "A free, fun, and friendly weekly 5k community event. Walk, jog, run, volunteer or spectate – it's up to you!"
  },
  {
    "name": "Ashton Court parkrun",
    "slug": "ashtoncourt",
    "url": "https://www.parkrun.org.uk/ashtoncourt/",
    "lat": 51.443592,
    "lng": -2.639948,
    "countrycode": 97,
    "seriesid": 1,
    "weekday": 6,
    "start_time": "09:30",
    "notes": "A free, fun, and friendly weekly 5k community event. Walk, jog, run, volunteer or spectate – it's up to you!"
  },
  {
    "name": "Hackney Marshes parkrun",
    "slug": "hackneymarshes",
    "url": "https://www.parkrun.org.uk/hackneymarshes/",
    "lat": 51.553686,
    "lng": -0.025368,
    "countrycode": 97,
    "seriesid": 1,
    "weekday": 6,
    "start_time": "09:30",
    "notes": "A free, fun, and friendly weekly 5k community event. Walk, jog, run, volunteer or spectate – it's up to you!"
  },
  {
    "name": "Avery Hill parkrun",
    "slug": "averyhill",
    "url": "https://www.parkrun.org.uk/averyhill/",
    "lat": 51.449459,
    "lng": 0.075155,
    "countrycode": 97,
    "seriesid": 1,
    "weekday": 6,
    "start_time": "09:30",
    "notes": "A free, fun, and friendly weekly 5k community event. Walk, jog, run, volunteer or spectate – it's up to you!"
  }
]